{
  "apartments": [
    {
      "name": "Stylish apartment in el born",
      "price": "85",
      "latitude": "41.393592",
      "longitude": "2.162570",
      "amentities": ["Guarded parking", "Balcony", "Dishwasher", "Freezer"]
    },
    {
      "name": "A cozy flat near Las Ramblas",
      "price": "70",
      "latitude": "41.394195",
      "longitude": "2.164844",
      "amentities": ["Free wireless internet", "Fireplace"]
    },
    {
      "name": "Apartment in the classic Barcelona center",
      "price": "60",
      "latitude": "41.393732",
      "longitude": "2.165551",
      "amentities": ["Air conditioner", "Elevator", "Terrace", "Blender", "Fridge"]
    },
    {
      "name": "Classic Eixample place for rent",
      "price": "75",
      "latitude": "41.392794",
      "longitude": "2.164888",
      "amentities": ["Free Transportation", "Guarded parking", "Game room"]
    },
    {
      "name": "Atlantida Beach",
      "price": "90",
      "latitude": "41.392876",
      "longitude": "2.163260",
      "amentities": ["Cooking hob"]
    },
    {
      "name": "Elegant place in Eixample",
      "price": "150",
      "latitude": "41.394479",
      "longitude": "2.163797",
      "amentities": ["Air conditioner", "Computerr", "Free wireless internet", "Game room", "Terrace", "Fridge"]
    }
  ]
}

